{"type":"FeatureCollection","features":[{"type":"Feature","geometry":{"type":"Point","coordinates":[-0.11887818574905396,51.5168466460692]},"properties":{"name":"Fleet River Bakery"}},{"type":"Feature","geometry":{"type":"Point","coordinates":[-0.0969618558883667,51.52404155529859]},"properties":{"name":"look mum no hands!"}},{"type":"Feature","geometry":{"type":"Point","coordinates":[-0.07485635683421059,51.54669701750695]},"properties":{"name":"Cafe Oto"}},{"type":"Feature","geometry":{"type":"Point","coordinates":[-0.07931948726936365,51.54901039759442]},"properties":{"name":"Tina, We Salute You"}},{"type":"Feature","geometry":{"type":"Point","coordinates":[-0.13448687200211773,51.513059777810334]},"properties":{"name":"Foxcroft & Ginger"}},{"type":"Feature","geometry":{"type":"Point","coordinates":[-0.13566028009267758,51.5086903032253]},"properties":{"name":"5th View Bar & Food"}},{"type":"Feature","geometry":{"type":"Point","coordinates":[-0.183676,51.551014]},"properties":{"name":"Camden Arts Centre"}},{"type":"Feature","geometry":{"type":"Point","coordinates":[-0.13007640838623047,51.5146984674518]},"properties":{"name":"Ray's Jazz Cafe at Foyles"}},{"type":"Feature","geometry":{"type":"Point","coordinates":[-0.13427942991256714,51.51779134522806]},"properties":{"name":"TAP Coffee No. 26"}}]}